{ "type": "FeatureCollection", "features": [
{ "type": "Feature", "geometry": {"type": "Point", "coordinates": [ 28.0436,-26.2023 ], "properties": { "full_name_nd":"Johannesburg","population":"2026469" } }},
{ "type": "Feature", "geometry": {"type": "Point", "coordinates": [ -0.09184,51.5128 ], "properties": { "full_name_nd":"City of London","population":"7556900" } }},
{ "type": "Feature", "geometry": {"type": "Point", "coordinates": [ 100.501,13.754 ], "properties": { "full_name_nd":"Bangkok","population":"5104476" } }},
{ "type": "Feature", "geometry": {"type": "Point", "coordinates": [ 80.2785,13.0878 ], "properties": { "full_name_nd":"Chennai","population":"4328063" } }},
{ "type": "Feature", "geometry": {"type": "Point", "coordinates": [ 88.363,22.5626 ], "properties": { "full_name_nd":"Kolkata","population":"4631392" } }},
{ "type": "Feature", "geometry": {"type": "Point", "coordinates": [ 77.2315,28.652 ], "properties": { "full_name_nd":"Delhi","population":"10927986" } }},
{ "type": "Feature", "geometry": {"type": "Point", "coordinates": [ 77.2315,28.652 ], "properties": { "full_name_nd":"Delhi","population":"10927986" } }},
{ "type": "Feature", "geometry": {"type": "Point", "coordinates": [ 121.119,14.6195 ], "properties": { "full_name_nd":"Manila","population":"1600000" } }},
{ "type": "Feature", "geometry": {"type": "Point", "coordinates": [ 106.845,-6.21462 ], "properties": { "full_name_nd":"Jakarta","population":"8540121" } }},
{ "type": "Feature", "geometry": {"type": "Point", "coordinates": [ 67.0822,24.9056 ], "properties": { "full_name_nd":"Karachi","population":"11624219" } }},
{ "type": "Feature", "geometry": {"type": "Point", "coordinates": [ 121.532,25.0478 ], "properties": { "full_name_nd":"Taipei","population":"7871900" } }},
{ "type": "Feature", "geometry": {"type": "Point", "coordinates": [ 72.8826,19.0728 ], "properties": { "full_name_nd":"Mumbai","population":"12691836" } }},
{ "type": "Feature", "geometry": {"type": "Point", "coordinates": [ 51.4215,35.6944 ], "properties": { "full_name_nd":"Tehran","population":"7153309" } }},
{ "type": "Feature", "geometry": {"type": "Point", "coordinates": [ 28.9497,41.0138 ], "properties": { "full_name_nd":"Istanbul","population":"11174257" } }},
{ "type": "Feature", "geometry": {"type": "Point", "coordinates": [ 31.2497,30.0626 ], "properties": { "full_name_nd":"Cairo","population":"7734614" } }},
{ "type": "Feature", "geometry": {"type": "Point", "coordinates": [ 151.207,-33.8679 ], "properties": { "full_name_nd":"Sydney","population":"4627345" } }},
{ "type": "Feature", "geometry": {"type": "Point", "coordinates": [ 46.7219,24.6877 ], "properties": { "full_name_nd":"Riyadh","population":"4205961" } }},
{ "type": "Feature", "geometry": {"type": "Point", "coordinates": [ -122.419,37.7749 ], "properties": { "full_name_nd":"San Francisco","population":"805235" } }},
{ "type": "Feature", "geometry": {"type": "Point", "coordinates": [ 44.4009,33.3406 ], "properties": { "full_name_nd":"Baghdad","population":"7216000" } }},
{ "type": "Feature", "geometry": {"type": "Point", "coordinates": [ 121.458,31.2222 ], "properties": { "full_name_nd":"Shanghai","population":"22315474" } }},
{ "type": "Feature", "geometry": {"type": "Point", "coordinates": [ -3.70256,40.4165 ], "properties": { "full_name_nd":"Madrid","population":"3255944" } }},
{ "type": "Feature", "geometry": {"type": "Point", "coordinates": [ 7.01228,51.4566 ], "properties": { "full_name_nd":"Essen","population":"593085" } }},
{ "type": "Feature", "geometry": {"type": "Point", "coordinates": [ 9.18951,45.4643 ], "properties": { "full_name_nd":"Milan","population":"1236837" } }},
{ "type": "Feature", "geometry": {"type": "Point", "coordinates": [ 30.3141,59.9386 ], "properties": { "full_name_nd":"Saint Petersburg","population":"5028000" } }},
{ "type": "Feature", "geometry": {"type": "Point", "coordinates": [ 37.6156,55.7522 ], "properties": { "full_name_nd":"Moscow","population":"10381222" } }},
{ "type": "Feature", "geometry": {"type": "Point", "coordinates": [ 3.04197,36.7525 ], "properties": { "full_name_nd":"Algiers","population":"1977663" } }},
{ "type": "Feature", "geometry": {"type": "Point", "coordinates": [ 3.39467,6.45407 ], "properties": { "full_name_nd":"Lagos","population":"9000000" } }},
{ "type": "Feature", "geometry": {"type": "Point", "coordinates": [ 32.5324,15.5518 ], "properties": { "full_name_nd":"Khartoum","population":"1974647" } }},
{ "type": "Feature", "geometry": {"type": "Point", "coordinates": [ 15.3136,-4.32758 ], "properties": { "full_name_nd":"Kinshasa","population":"7785965" } }},
{ "type": "Feature", "geometry": {"type": "Point", "coordinates": [ 116.397,39.9075 ], "properties": { "full_name_nd":"Beijing","population":"11716620" } }},
{ "type": "Feature", "geometry": {"type": "Point", "coordinates": [ 126.978,37.566 ], "properties": { "full_name_nd":"Seoul","population":"10349312" } }},
{ "type": "Feature", "geometry": {"type": "Point", "coordinates": [ 139.692,35.6895 ], "properties": { "full_name_nd":"Tokyo","population":"8336599" } }},
{ "type": "Feature", "geometry": {"type": "Point", "coordinates": [ -74.006,40.7143 ], "properties": { "full_name_nd":"New York City","population":"8175133" } }},
{ "type": "Feature", "geometry": {"type": "Point", "coordinates": [ -87.65,41.85 ], "properties": { "full_name_nd":"Chicago","population":"2695598" } }},
{ "type": "Feature", "geometry": {"type": "Point", "coordinates": [ -84.388,33.749 ], "properties": { "full_name_nd":"Atlanta","population":"420003" } }},
{ "type": "Feature", "geometry": {"type": "Point", "coordinates": [ -118.244,34.0522 ], "properties": { "full_name_nd":"Los Angeles","population":"3792621" } }},
{ "type": "Feature", "geometry": {"type": "Point", "coordinates": [ -77.0364,38.8951 ], "properties": { "full_name_nd":"Washington D.C.","population":"601723" } }},
{ "type": "Feature", "geometry": {"type": "Point", "coordinates": [ -80.1937,25.7743 ], "properties": { "full_name_nd":"Miami","population":"399457" } }},
{ "type": "Feature", "geometry": {"type": "Point", "coordinates": [ -99.1277,19.4285 ], "properties": { "full_name_nd":"Mexico City","population":"12294193" } }},
{ "type": "Feature", "geometry": {"type": "Point", "coordinates": [ -74.063644,4.624335 ], "properties": { "full_name_nd":"Bogota","population":"7878783" } }},
{ "type": "Feature", "geometry": {"type": "Point", "coordinates": [ -77.0282,-12.0432 ], "properties": { "full_name_nd":"Lima","population":"7737002" } }},
{ "type": "Feature", "geometry": {"type": "Point", "coordinates": [ -58.3772,-34.6132 ], "properties": { "full_name_nd":"Buenos Aires","population":"13076300" } }},
{ "type": "Feature", "geometry": {"type": "Point", "coordinates": [ 2.349014,48.864716 ], "properties": { "full_name_nd":"Paris","population":"2229621" } }},
{ "type": "Feature", "geometry": {"type": "Point", "coordinates": [ -73.56725,45.5016889 ], "properties": { "full_name_nd":"Montreal","population":"1649519" } }},
{ "type": "Feature", "geometry": {"type": "Point", "coordinates": [ -46.625290,-23.533773 ], "properties": { "full_name_nd":"Sao Paulo","population":"12038175" } }},
{ "type": "Feature", "geometry": {"type": "Point", "coordinates": [ -70.645348,-33.459229 ], "properties": { "full_name_nd":"Santiago","population":"6158080" } }},
{ "type": "Feature", "geometry": {"type": "Point", "coordinates": [ 114.149139,22.286394 ], "properties": { "full_name_nd":"Hong Kong","population":"7298600" } }},
{ "type": "Feature", "geometry": {"type": "Point", "coordinates": [ 135.502165,34.693738 ], "properties": { "full_name_nd":"Osaka","population":"2668586" } }},
{ "type": "Feature", "geometry": {"type": "Point", "coordinates": [ 106.660172,10.762622 ], "properties": { "full_name_nd":"Ho Chi Minh City","population":"8224400" } }}
] }
